0C
VTG,,T,,M,0.064,N,0.119,K,A*28
$GPGGA,151638.00,A,A*7F
$GPRMC,151638.00,A,3729.20844,N,12213.94165,W,0.064,,251115,,,A*62
$GPVTG,,T,,M,0.064,N,0.119,K,A*28
$GPGGA,151638.0$GPRMC,151641.00,A,3729.20825,N,12213.94186,W,0.084,,251115,,,A*68
$GPVTG,,T,,M,0.084,N,0.156,K,A*2D
$GPGGA,151641.00,3729.20825,N,12213.94186,W,1,05,1.37,28.7,M,-30.0,M,,*58
$GPGSA,A,3,20,02,29,05,12,,,,,,,,5.18,1.37,5.00*03
$GPGSV,2,1,07,02,39,049,29,05,52,103,46,12,52,161,41,20,34,176,40*77
$GPGSV,2,2,07,29,47$GPRMC,151642.00,A,3729.20823,N,12213.94194,W,0.027,,251115,,,A*67
$GPVTG,,T,,M,0.027,N,0.051,K,A*22
$GPGGA,151642.00,3729.20823,N,12213.94194,W,1,05,1.37,28.5,M,-30.0,M,,*5C
$GPGSA,A,3,20,02,29,05,12,,,,,,,,5.18,1.37,5.00*03
$GPGSV,2,1,07,02,39,049,294194,W,151642.00,A,A*78
$GPRMC,151643.00,A,3729.20820,N,12213.94204,W,0.094,,251115,,,A*67
$GPVTG,,T,,M,0.094,N,0.175,K,A*2D
$GPGGA,151643.00,3729.20820,N,12213.94204,W,1,05,1.37,28.8,M,-30.0,M,,*59
$GPGSA,A,3,20,02,29,05,12,,,,,,,,5.19,1.37,5.00*02
$PGLL,3729.20820,N,12213.94204,W,151643.00,A,A*70
$GPRMC,151644.00,A,3729.20818,N,12213.94214,W,0.076,,251115,,,A*66
$GPVTG,,T,,M,0.076,N,0.141,K,A*26
$GPGGA,151644.00,3729.20818,N,12213.94214,W,1,05,1.37,29.2,M,-30.0,M,,*5F
$GPGSA,A,3,20,02,29,05,12,,,43,36,51,44,156,45*46
$GPGLL,3729.20818,N,12213.94214,W,151644.00,A,A*7D
$GPRMC,151645.00,A,3729.20817,N,12213.94218,W,0.072,,251115,,,A*60
$GPVTG,,T,,M,0.072,N,0.133,K,A*27
$GPGGA,151645.00,3729.20817,N,12213.94218,W,1,05,1.37,29.7,M,-30.0,M,,*58
$GP2,07,29,47,310,33,46,40,143,36,51,44,156,45*46
$GPGLL,3729.20817,N,12213.94218,W,151645.00,A,A*7F
$GPRMC,151646.00,A,3729.20806,N,12213.94231,W,0.037,,251115,,,A*69
$GPVTG,,T,,M,0.037,N,0.069,K,A*28
$GPGGA,151646.00,3729.20806,N,12213.94231,W,1,05,1.370,34,176,39*70
$GPGSV,2,2,07,29,47,310,33,46,40,143,36,51,44,156,45*46
$GPGLL,3729.20806,N,12213.94231,W,151646.00,A,A*77
$GPRMC,151647.00,A,3729.20800,N,12213.94242,W,0.070,,251115,,,A*69
$GPVTG,,T,,M,0.070,N,0.130,K,A*26
$GPGGA,151647.00,3729.20800,,52,103,46,12,52,161,42,20,34,176,39*70
$GPGSV,2,2,07,29,47,310,33,46,40,143,36,51,44,156,45*46
$GPGLL,3729.20800,N,12213.94242,W,151647.00,A,A*74
$GPRMC,151648.00,A,3729.20800,N,12213.94243,W,0.040,,251115,,,A*64
$GPVTG,,T,,M,0.040,N,0.074,K,A*24
$GPSV,2,1,07,02,39,049,32,05,52,103,46,12,52,161,42,20,34,176,39*70
$GPGSV,2,2,07,29,47,310,33,46,40,143,36,51,44,156,45*46
$GPGLL,3729.20800,N,12213.94243,W,151648.00,A,A*7A
$GPRMC,151649.00,A,3729.20801,N,12213.94245,W,0.052,,251115,,,A*61
$GPVTG,,T,,M,,,5.19,1.37,5.01*03
$GPGSV,2,1,07,02,39,049,32,05,52,103,47,12,52,161,42,20,34,176,39*71
$GPGSV,2,2,07,29,47,310,33,46,40,143,36,51,44,156,45*46
$GPGLL,3729.20801,N,12213.94245,W,151649.00,A,A*7C
$GPRMC,151650.00,A,3729.20808,N,12213.94249,W,0.113,,251115,,,A*68
$GPVTG,,T,,M,0.113,N,0.209,K,A*2B
$GPGGA,151650.00,3729.20808,N,12213.94249,W,1,05,1.37,32.1,M,-30.0,M,,*5A
$GPGSA,A,3,20,02,29,05,12,,,,,,,,5.19,1.37,5.01*03
$GPGSV,2,1,07,02,39,049,33,05,52,103,47,12,52,161,39,20,34,176,35*70
$GPGSV,2,2,0$GPRMC,151651.00,A,3729.20816,N,12213.94249,W,0.102,,251115,,,A*66
$GPVTG,,T,,M,0.102,N,0.189,K,A*20
$GPGGA,151651.00,3729.20816,N,12213.94249,W,1,05,1.37,32.2,M,-30.0,M,,*57
$GPGSA,A,3,20,02,29,05,12,,,,,,,,5.20,1.37,5.01*09
$GPGSV,2,1,07,02,39,049,214249,W,151651.00,A,A*7F
$GPRMC,151652.00,A,3729.20819,N,12213.94250,W,0.121,,251115,,,A*63
$GPVTG,,T,,M,0.121,N,0.224,K,A*25
$GPGGA,151652.00,3729.20819,N,12213.94250,W,1,05,1.37,32.4,M,-30.0,M,,*55
$GPGSA,A,3,20,02,29,05,12,,,,,,,,5.20,1.37,5.01*09
$PGLL,3729.20819,N,12213.94250,W,151652.00,A,A*7B
$GPRMC,151653.00,A,3729.20828,N,12213.94234,W,0.579,,251115,,,A*6B
$GPVTG,,T,,M,0.579,N,1.073,K,A*2D
$GPGGA,151653.00,3729.20828,N,12213.94234,W,1,05,1.37,32.5,M,-30.0,M,,*55
$GPGSA,A,3,20,02,29,05,12,,,GLL,3729.20828,N,12213.94234,W,151653.00,A,A*7A
$GPRMC,151654.00,A,3729.20917,N,12213.94055,W,4.466,87.50,251115,,,A*4B
$GPVTG,87.50,T,,M,4.466,N,8.272,K,A*08
$GPGGA,151654.00,3729.20917,N,12213.94055,W,1,05,1.37,32.2,M,-30.0,M,,*5D
$GPGSA,A,3,20,02,297*43
$GPGLL,3729.20917,N,12213.94055,W,151654.00,A,A*75
$GPRMC,151655.00,A,3729.21146,N,12213.93714,W,9.938,58.77,251115,,,A*4E
$GPVTG,58.77,T,,M,9.938,N,18.406,K,A*30
$GPGGA,151655.00,3729.21146,N,12213.93714,W,1,05,1.37,30.5,M,-30.0,M,,*51
$GPGSA,A,9,47,310,25*41
$GPGLL,3729.21146,N,12213.93714,W,151655.00,A,A*7C
$GPRMC,151656.00,A,3729.21244,N,12213.93663,W,6.190,52.66,251115,,,A*42
$GPVTG,52.66,T,,M,6.190,N,11.464,K,A*32
$GPGGA,151656.00,3729.21244,N,12213.93663,W,1,05,2.59,30.0,M,-30.0,M,,*5C
V,2,2,05,29,47,310,23*47
$GPGLL,3729.21244,N,12213.93663,W,151656.00,A,A*7F
$GPRMC,151657.00,A,3729.21232,N,12213.93725,W,2.185,,251115,,,A*68
$GPVTG,,T,,M,2.185,N,4.048,K,A*25
$GPGGA,151657.00,3729.21232,N,12213.93725,W,1,05,2.59,29.5,M,-30.0,M,,*52
,2,2,05,29,47,310,22*46
$GPGLL,3729.21232,N,12213.93725,W,151657.00,A,A*7C
$GPRMC,151658.00,A,3729.21245,N,12213.93719,W,1.296,,251115,,,A*6A
$GPVTG,,T,,M,1.296,N,2.400,K,A*29
$GPGGA,151658.00,3729.21245,N,12213.93719,W,1,05,2.59,29.2,M,-30.0,M,,*55
$2,2,05,29,47,310,23*47
$GPGLL,3729.21245,N,12213.93719,W,151658.00,A,A*7C
$GPRMC,151659.00,A,3729.21332,N,12213.93714,W,2.481,,251115,,,A*64
$GPVTG,,T,,M,2.481,N,4.594,K,A*20
$GPGGA,151659.00,3729.21332,N,12213.93714,W,1,05,2.59,29.6,M,-30.0,M,,*5C
$G,2,05,29,47,310,22*46
$GPGLL,3729.21332,N,12213.93714,W,151659.00,A,A*71
$GPRMC,151700.00,A,3729.21315,N,12213.93788,W,1.442,,251115,,,A*65
$GPVTG,,T,,M,1.442,N,2.670,K,A*23
$GPGGA,151700.00,3729.21315,N,12213.93788,W,1,05,2.59,29.3,M,-30.0,M,,*54
$GP2,05,29,47,310,23*47
$GPGLL,3729.21315,N,12213.93788,W,151700.00,A,A*7C
$GPRMC,151701.00,A,3729.21293,N,12213.93869,W,1.452,,251115,,,A*6A
$GPVTG,,T,,M,1.452,N,2.689,K,A*24
$GPGGA,151701.00,3729.21293,N,12213.93869,W,1,05,2.50,28.7,M,-30.0,M,,*56
$GPG,2,05,29,47,310,27*43
$GPGLL,3729.21293,N,12213.93869,W,151701.00,A,A*72
$GPRMC,151702.00,A,3729.21239,N,12213.93925,W,0.829,,251115,,,A*61
$GPVTG,,T,,M,0.829,N,1.535,K,A*22
$GPGGA,151702.00,3729.21239,N,12213.93925,W,1,05,2.49,29.4,M,-30.0,M,,*56
$GP2,2,06,29,47,310,35,51,44,156,41*70
$GPGLL,3729.21239,N,12213.93925,W,151702.00,A,A*78
$GPRMC,151703.00,A,3729.21102,N,12213.93986,W,0.448,,251115,,,A*69
$GPVTG,,T,,M,0.448,N,0.830,K,A*20
$GPGGA,151703.00,3729.21102,N,12213.93986,W,1,05,1.37,25.3,M,-30*7C
$GPGSV,2,2,06,29,47,310,36,51,44,156,46*74
$GPGLL,3729.21102,N,12213.93986,W,151703.00,A,A*7B
$GPRMC,151704.00,A,3729.21053,N,12213.94041,W,0.018,,251115,,,A*6F
$GPVTG,,T,,M,0.018,N,0.033,K,A*2A
$GPGGA,151704.00,3729.21053,N,12213.94041,W,1,05,1.320,34,176,42*73
$GPGSV,2,2,06,29,47,310,36,51,44,156,46*74
$GPGLL,3729.21053,N,12213.94041,W,151704.00,A,A*7C
$GPRMC,151705.00,A,3729.21066,N,12213.94050,W,0.066,,251115,,,A*61
$GPVTG,,T,,M,0.066,N,0.122,K,A*22
$GPGGA,151705.00,3729.21066,N,12213.94052,52,161,47,20,34,176,42*72
$GPGSV,2,2,06,29,47,310,36,51,44,156,46*74
$GPGLL,3729.21066,N,12213.94050,W,151705.00,A,A*7B
$GPRMC,151706.00,A,3729.21060,N,12213.94057,W,0.044,,251115,,,A*63
$GPVTG,,T,,M,0.044,N,0.081,K,A*2A
$GPGGA,151706.00,3729.21060,,52,103,49,12,52,161,47,20,34,176,42*72
$GPGSV,2,2,06,29,47,310,36,51,44,156,46*74
$GPGLL,3729.21060,N,12213.94057,W,151706.00,A,A*79
$GPRMC,151707.00,A,3729.21080,N,12213.94035,W,0.049,,251115,,,A*65
$GPVTG,,T,,M,0.049,N,0.091,K,A*26
$GPGGA,151707.0039,049,26,05,52,103,49,12,52,161,47,20,34,176,42*72
$GPGSV,2,2,06,29,47,310,36,51,44,156,46*74
$GPGLL,3729.21080,N,12213.94035,W,151707.00,A,A*72
$GPRMC,151708.00,A,3729.21087,N,12213.94040,W,0.016,,251115,,,A*65
$GPVTG,,T,,M,0.016,N,0.031,K,A*26
$GPGV,2,1,06,02,39,049,27,05,52,103,49,12,52,161,47,20,34,176,42*73
$GPGSV,2,2,06,29,47,310,36,51,44,156,46*74
$GPGLL,3729.21087,N,12213.94040,W,151708.00,A,A*78
$GPRMC,151709.00,A,3729.21081,N,12213.94052,W,0.062,,251115,,,A*62
$GPVTG,,T,,M,0.062,N,0.115,03*09
$GPGSV,2,1,06,02,39,049,27,05,52,103,49,12,52,161,47,20,34,176,42*73
$GPGSV,2,2,06,29,47,310,34,51,44,156,46*76
$GPGLL,3729.21081,N,12213.94052,W,151709.00,A,A*7C
$GPRMC,151710.00,A,3
